
{
    "type":"FeatureCollection",
    "generator":"JOSM",
    "features":[
        {
            "type":"Feature",
            "properties":{
                "name":"Biratnagar"
            },
            "geometry":{
                "type":"Point",
                "coordinates":[
                    87.2808109,
                    26.4617104
                ]
            }
        },
        {
            "type":"Feature",
            "properties":{
                "name":"Salyantar"
            },
            "geometry":{
                "type":"Point",
                "coordinates":[
                    85.3142837,
                    27.595807
                ]
            }
        },
        {
            "type":"Feature",
            "properties":{
                "name":"Salyansthan"
            },
            "geometry":{
                "type":"Point",
                "coordinates":[
                    85.2674702,
                    27.6777206
                ]
            }
        },
        {
            "type":"Feature",
            "properties":{
                "name":"Bhanu Pokhara"
            },
            "geometry":{
                "type":"Point",
                "coordinates":[
                    83.1569294,
                    28.1987141
                ]
            }
        },
        {
            "type":"Feature",
            "properties":{
                "name":"Gaighat"
            },
            "geometry":{
                "type":"Point",
                "coordinates":[
                    86.6982437,
                    26.7911904
                ]
            }
        },
        {
            "type":"Feature",
            "properties":{
                "name":"Nepalgunj"
            },
            "geometry":{
                "type":"Point",
                "coordinates":[
                    81.6286253,
                    28.0660225
                ]
            }
        },
        {
            "type":"Feature",
            "properties":{
                "name":"Salyan"
            },
            "geometry":{
                "type":"Point",
                "coordinates":[
                    85.3419199,
                    27.5903779
                ]
            }
        },
        {
            "type":"Feature",
            "properties":{
                "name":"Birendranagar"
            },
            "geometry":{
                "type":"Point",
                "coordinates":[
                    81.6284977,
                    28.5953857
                ]
            }
        },
        {
            "type":"Feature",
            "properties":{
                "name":"hatbazaar chautara"
            },
            "geometry":{
                "type":"Point",
                "coordinates":[
                    84.4411018,
                    27.7010078
                ]
            }
        },
        {
            "type":"Feature",
            "properties":{
                "name":"Rajbiraj"
            },
            "geometry":{
                "type":"Point",
                "coordinates":[
                    86.7485529,
                    26.5395981
                ]
            }
        },
        {
            "type":"Feature",
            "properties":{
                "name":"Bhairahawa"
            },
            "geometry":{
                "type":"Point",
                "coordinates":[
                    83.4180283,
                    27.6844782
                ]
            }
        },
        {
            "type":"Feature",
            "properties":{
                "name":"Dipayal Silgadhi"
            },
            "geometry":{
                "type":"Point",
                "coordinates":[
                    80.9402246,
                    29.2566688
                ]
            }
        },
        {
            "type":"Feature",
            "properties":{
                "name":"Salyan Khalanga"
            },
            "geometry":{
                "type":"Point",
                "coordinates":[
                    82.1616243,
                    28.376621
                ]
            }
        },
        {
            "type":"Feature",
            "properties":{
                "name":"Jiri"
            },
            "geometry":{
                "type":"Point",
                "coordinates":[
                    86.2302455,
                    27.6353839
                ]
            }
        },
        {
            "type":"Feature",
            "properties":{
                "name":"Taplejung"
            },
            "geometry":{
                "type":"Point",
                "coordinates":[
                    87.6708823,
                    27.357684
                ]
            }
        },
        {
            "type":"Feature",
            "properties":{
                "name":"Pokhara"
            },
            "geometry":{
                "type":"Point",
                "coordinates":[
                    83.9914028,
                    28.2095379
                ]
            }
        },
        {
            "type":"Feature",
            "properties":{
                "name":"Gorkha"
            },
            "geometry":{
                "type":"Point",
                "coordinates":[
                    84.6235691,
                    27.998681
                ]
            }
        },
        {
            "type":"Feature",
            "properties":{
                "name":"Salyankot"
            },
            "geometry":{
                "type":"Point",
                "coordinates":[
                    84.8639073,
                    28.0252787
                ]
            }
        },
        {
            "type":"Feature",
            "properties":{
                "name":"Dhangadhi"
            },
            "geometry":{
                "type":"Point",
                "coordinates":[
                    86.4026859,
                    26.7543893
                ]
            }
        },
        {
            "type":"Feature",
            "properties":{
                "name":"Dhankuta"
            },
            "geometry":{
                "type":"Point",
                "coordinates":[
                    87.3437761,
                    26.9841907
                ]
            }
        },
        {
            "type":"Feature",
            "properties":{
                "name":"Ghanpokhara Village"
            },
            "geometry":{
                "type":"Point",
                "coordinates":[
                    84.3032841,
                    28.290554
                ]
            }
        },
        {
            "type":"Feature",
            "properties":{
                "name":"Kodari"
            },
            "geometry":{
                "type":"Point",
                "coordinates":[
                    85.9625457,
                    27.9723336
                ]
            }
        },
        {
            "type":"Feature",
            "properties":{
                "name":"Pokhara Bari"
            },
            "geometry":{
                "type":"Point",
                "coordinates":[
                    83.1791276,
                    28.1883456
                ]
            }
        },
        {
            "type":"Feature",
            "properties":{
                "name":"Silamgal"
            },
            "geometry":{
                "type":"Point",
                "coordinates":[
                    85.4209974,
                    27.6359931
                ]
            }
        },
        {
            "type":"Feature",
            "properties":{
                "name":"Chautara"
            },
            "geometry":{
                "type":"Point",
                "coordinates":[
                    85.7150096,
                    27.7751352
                ]
            }
        },
        {
            "type":"Feature",
            "properties":{
                "name":"Hetauda"
            },
            "geometry":{
                "type":"Point",
                "coordinates":[
                    85.031725,
                    27.4309584
                ]
            }
        },
        {
            "type":"Feature",
            "properties":{
                "name":"Bhote chautara"
            },
            "geometry":{
                "type":"Point",
                "coordinates":[
                    84.0281073,
                    28.174082
                ]
            }
        },
        {
            "type":"Feature",
            "properties":{
                "name":"Dhunche"
            },
            "geometry":{
                "type":"Point",
                "coordinates":[
                    85.2963149,
                    28.1125341
                ]
            }
        },
        {
            "type":"Feature",
            "properties":{
                "name":"Lumbini"
            },
            "geometry":{
                "type":"Point",
                "coordinates":[
                    83.2856991,
                    27.470812
                ]
            }
        },
        {
            "type":"Feature",
            "properties":{
                "name":"Janakpur"
            },
            "geometry":{
                "type":"Point",
                "coordinates":[
                    85.923167,
                    26.7316529
                ]
            }
        },
        {
            "type":"Feature",
            "properties":{
                "name":"Krishnanagar"
            },
            "geometry":{
                "type":"Point",
                "coordinates":[
                    82.7910221,
                    27.5004747
                ]
            }
        },
        {
            "type":"Feature",
            "properties":{
                "name":"Baitadi"
            },
            "geometry":{
                "type":"Point",
                "coordinates":[
                    80.4672961,
                    29.5242268
                ]
            }
        },
        {
            "type":"Feature",
            "properties":{
                "name":"Dhulikhel Tole"
            },
            "geometry":{
                "type":"Point",
                "coordinates":[
                    85.4706992,
                    27.6866821
                ]
            }
        },
        {
            "type":"Feature",
            "properties":{
                "name":"Dailekh"
            },
            "geometry":{
                "type":"Point",
                "coordinates":[
                    81.7111591,
                    28.8427834
                ]
            }
        },
        {
            "type":"Feature",
            "properties":{
                "name":"Dhulikhel"
            },
            "geometry":{
                "type":"Point",
                "coordinates":[
                    85.5518011,
                    27.6220146
                ]
            }
        },
        {
            "type":"Feature",
            "properties":{
                "name":"Gorkha Kot"
            },
            "geometry":{
                "type":"Point",
                "coordinates":[
                    82.0072126,
                    28.8951779
                ]
            }
        },
        {
            "type":"Feature",
            "properties":{
                "name":"Pokhara"
            },
            "geometry":{
                "type":"Point",
                "coordinates":[
                    80.6055629,
                    29.3472845
                ]
            }
        },
        {
            "type":"Feature",
            "properties":{
                "name":"Chautara"
            },
            "geometry":{
                "type":"Point",
                "coordinates":[
                    84.7570716,
                    28.0247146
                ]
            }
        },
        {
            "type":"Feature",
            "properties":{
                "name":"Dhangadhi"
            },
            "geometry":{
                "type":"Point",
                "coordinates":[
                    80.5670151,
                    28.703304
                ]
            }
        },
        {
            "type":"Feature",
            "properties":{
                "name":"Kathmandu"
            },
            "geometry":{
                "type":"Point",
                "coordinates":[
                    85.3148882,
                    27.7076762
                ]
            }
        }
    ]
}